[
  {
    "id": "33702644",
    "lat": "2.1491186",
    "long": "102.7714598",
    "name": "Pagoh",
    "isIn": "Johor"
  },
  {
    "id": "142329073",
    "lat": "2.2098953",
    "long": "102.651091",
    "name": "Bukit Gambir",
    "isIn": "Johor"
  },
  {
    "id": "168606308",
    "lat": "2.5247945",
    "long": "102.9526899",
    "name": "FELDA Kemelah",
    "isIn": "Johor"
  },
  {
    "id": "168607410",
    "lat": "2.5124036",
    "long": "102.8137391",
    "name": "Segamat",
    "isIn": "Johor"
  },
  {
    "id": "185724887",
    "lat": "2.266995",
    "long": "102.5399606",
    "name": "Tangkak",
    "isIn": "Johor"
  },
  {
    "id": "185737014",
    "lat": "2.145582",
    "long": "102.5625436",
    "name": "Sungai Mati",
    "isIn": "Johor"
  },
  {
    "id": "186390703",
    "lat": "2.4839236",
    "long": "102.8496378",
    "name": "Bukit Siput",
    "isIn": "Johor"
  },
  {
    "id": "186393400",
    "lat": "2.4928867",
    "long": "102.85199",
    "name": "Segamat Baru",
    "isIn": "Johor"
  },
  {
    "id": "247175143",
    "lat": "2.1716017",
    "long": "102.7124398",
    "name": "Panchor",
    "isIn": "Johor"
  },
  {
    "id": "254072813",
    "lat": "2.0425046",
    "long": "102.5658852",
    "name": "Muar",
    "isIn": "Johor"
  },
  {
    "id": "254072820",
    "lat": "2.2354122",
    "long": "102.7695001",
    "name": "Kundang Ulu",
    "isIn": "Johor"
  },
  {
    "id": "254072827",
    "lat": "1.8147483",
    "long": "103.4779698",
    "name": "Layang-Layang",
    "isIn": "Johor"
  },
  {
    "id": "254072828",
    "lat": "1.5369721",
    "long": "103.662103",
    "name": "Skudai",
    "isIn": "Johor"
  },
  {
    "id": "254072838",
    "lat": "1.5067604",
    "long": "103.512715",
    "name": "Pekan Nanas",
    "isIn": "Johor"
  },
  {
    "id": "254072847",
    "lat": "2.1652852",
    "long": "102.5865074",
    "name": "Serom",
    "isIn": "Johor"
  },
  {
    "id": "254072850",
    "lat": "1.9181728",
    "long": "103.1795162",
    "name": "Ayer Hitam",
    "isIn": "Johor"
  },
  {
    "id": "254072854",
    "lat": "1.8277096",
    "long": "103.3092005",
    "name": "Simpang Renggam",
    "isIn": "Johor"
  },
  {
    "id": "254072893",
    "lat": "1.4494162",
    "long": "103.5872736",
    "name": "Gelang Patah",
    "isIn": "Johor"
  },
  {
    "id": "254072911",
    "lat": "2.0497436",
    "long": "102.6138356",
    "name": "Simpang Jeram",
    "isIn": "Johor"
  },
  {
    "id": "254072959",
    "lat": "2.0763359",
    "long": "102.5499705",
    "name": "Parit Bunga",
    "isIn": "Johor"
  },
  {
    "id": "254072968",
    "lat": "2.3455841",
    "long": "102.8319649",
    "name": "Bukit Kepong",
    "isIn": "Johor"
  },
  {
    "id": "254072975",
    "lat": "2.0322421",
    "long": "103.3190922",
    "name": "Kluang",
    "isIn": "Johor"
  },
  {
    "id": "254072998",
    "lat": "1.3266945",
    "long": "103.4449559",
    "name": "Kukup",
    "isIn": "Johor"
  },
  {
    "id": "254073022",
    "lat": "1.5242266",
    "long": "103.8226642",
    "name": "Plentong",
    "isIn": "Johor"
  },
  {
    "id": "254073039",
    "lat": "2.1746391",
    "long": "102.5538726",
    "name": "Bukit Kangkar",
    "isIn": "Johor"
  },
  {
    "id": "254073043",
    "lat": "1.9022455",
    "long": "102.7474094",
    "name": "Sungai Balang",
    "isIn": "Johor"
  },
  {
    "id": "254073066",
    "lat": "2.26312",
    "long": "102.6804031",
    "name": "Sengkang Batu 19",
    "isIn": "Johor"
  },
  {
    "id": "254073078",
    "lat": "1.587094",
    "long": "103.339187",
    "name": "Ayer Baloi",
    "isIn": "Johor"
  },
  {
    "id": "254073079",
    "lat": "2.274126",
    "long": "102.815299",
    "name": "Lenga",
    "isIn": "Johor"
  },
  {
    "id": "254073101",
    "lat": "1.9837125",
    "long": "102.9563819",
    "name": "Seri Medan",
    "isIn": "Johor"
  },
  {
    "id": "254073106",
    "lat": "2.1927389",
    "long": "102.4936155",
    "name": "Kundang",
    "isIn": "Johor"
  },
  {
    "id": "254073121",
    "lat": "1.60508",
    "long": "103.823894",
    "name": "Ulu Tiram",
    "isIn": "Johor"
  },
  {
    "id": "254073243",
    "lat": "1.5218297",
    "long": "103.7639473",
    "name": "Pandan",
    "isIn": "Johor"
  },
  {
    "id": "254073258",
    "lat": "1.906336",
    "long": "102.950567",
    "name": "Tongkang Pechah",
    "isIn": "Johor"
  },
  {
    "id": "254073260",
    "lat": "1.6834671",
    "long": "103.5763399",
    "name": "Sengkang",
    "isIn": "Johor"
  },
  {
    "id": "254073282",
    "lat": "1.8516934",
    "long": "103.9613042",
    "name": "Mawai",
    "isIn": "Johor"
  },
  {
    "id": "254073396",
    "lat": "1.7331654",
    "long": "103.9013516",
    "name": "Kota Tinggi",
    "isIn": "Johor"
  },
  {
    "id": "254073414",
    "lat": "2.3925489",
    "long": "102.6845994",
    "name": "Kebun Baharu",
    "isIn": "Johor"
  },
  {
    "id": "254073418",
    "lat": "1.656937",
    "long": "103.605879",
    "name": "Kulai",
    "isIn": "Johor"
  },
  {
    "id": "254073421",
    "lat": "2.0111092",
    "long": "103.0665739",
    "name": "Yong Peng",
    "isIn": "Johor"
  },
  {
    "id": "254073520",
    "lat": "1.9584983",
    "long": "102.6448186",
    "name": "Parit Jawa",
    "isIn": "Johor"
  },
  {
    "id": "254073532",
    "lat": "2.5510589",
    "long": "102.7681181",
    "name": "Buloh Kasap",
    "isIn": "Johor"
  },
  {
    "id": "254073644",
    "lat": "2.4727313",
    "long": "103.0531854",
    "name": "Pekan Ayer Panas",
    "isIn": "Johor"
  },
  {
    "id": "254073982",
    "lat": "1.5395865",
    "long": "103.7587824",
    "name": "Tebrau",
    "isIn": "Johor"
  },
  {
    "id": "254074022",
    "lat": "1.698375",
    "long": "103.4859589",
    "name": "Ayer Bemban",
    "isIn": "Johor"
  },
  {
    "id": "254074037",
    "lat": "2.0985384",
    "long": "102.6376064",
    "name": "Bukit Pasir",
    "isIn": "Johor"
  },
  {
    "id": "254074052",
    "lat": "1.7491155",
    "long": "103.052298",
    "name": "Senggarang",
    "isIn": "Johor"
  },
  {
    "id": "254074053",
    "lat": "1.369731",
    "long": "104.120608",
    "name": "Pengerang",
    "isIn": "Johor"
  },
  {
    "id": "254074122",
    "lat": "2.2970857",
    "long": "103.131696",
    "name": "Bekok",
    "isIn": "Johor"
  },
  {
    "id": "254074127",
    "lat": "1.4865019",
    "long": "103.8854334",
    "name": "Masai",
    "isIn": "Johor"
  },
  {
    "id": "254074174",
    "lat": "2.2757675",
    "long": "103.857887",
    "name": "Jemaluang",
    "isIn": "Johor"
  },
  {
    "id": "254074178",
    "lat": "2.3053516",
    "long": "102.6145306",
    "name": "Sagil",
    "isIn": "Johor"
  },
  {
    "id": "254074207",
    "lat": "1.8842744",
    "long": "103.4020602",
    "name": "Renggam",
    "isIn": "Johor"
  },
  {
    "id": "254074228",
    "lat": "1.8472584",
    "long": "102.9346697",
    "name": "Batu Pahat",
    "isIn": "Johor"
  },
  {
    "id": "254074257",
    "lat": "1.8842595",
    "long": "102.7803733",
    "name": "Semerah",
    "isIn": "Johor"
  },
  {
    "id": "254074259",
    "lat": "1.4875086",
    "long": "103.387864",
    "name": "Pontian Kecil",
    "isIn": "Johor"
  },
  {
    "id": "254074268",
    "lat": "1.3344617",
    "long": "103.4560402",
    "name": "Bandar Permas",
    "isIn": "Johor"
  },
  {
    "id": "254074269",
    "lat": "1.6800091",
    "long": "103.1457254",
    "name": "Rengit",
    "isIn": "Johor"
  },
  {
    "id": "254074325",
    "lat": "2.2096717",
    "long": "102.7053031",
    "name": "Gerisek",
    "isIn": "Johor"
  },
  {
    "id": "254074346",
    "lat": "2.2488989",
    "long": "103.0429494",
    "name": "Chaah",
    "isIn": "Johor"
  },
  {
    "id": "254074350",
    "lat": "2.355434",
    "long": "103.0383383",
    "name": "Sungai Karas",
    "isIn": "Johor"
  },
  {
    "id": "254074444",
    "lat": "1.8816538",
    "long": "103.262764",
    "name": "Machap",
    "isIn": "Johor"
  },
  {
    "id": "254074471",
    "lat": "2.188111",
    "long": "103.1939286",
    "name": "Paloh",
    "isIn": "Johor"
  },
  {
    "id": "254074483",
    "lat": "2.0424892",
    "long": "102.6539628",
    "name": "Bukit Bakri",
    "isIn": "Johor"
  },
  {
    "id": "254074537",
    "lat": "2.533233",
    "long": "102.807666",
    "name": "Pekan Jabi",
    "isIn": "Johor"
  },
  {
    "id": "254237831",
    "lat": "1.4953041",
    "long": "103.7550839",
    "name": "Johor Bahru",
    "isIn": "Johor"
  },
  {
    "id": "256086292",
    "lat": "2.2264398",
    "long": "102.7908305",
    "name": "Liang Batu",
    "isIn": "Johor"
  },
  {
    "id": "256086297",
    "lat": "2.246075",
    "long": "102.8114242",
    "name": "Gombang",
    "isIn": "Johor"
  },
  {
    "id": "260704034",
    "lat": "1.2835747",
    "long": "103.5022415",
    "name": "Tanjung Piai",
    "isIn": "Johor"
  },
  {
    "id": "260704035",
    "lat": "1.303435",
    "long": "103.489535",
    "name": "Kampong Serkat",
    "isIn": "Johor"
  },
  {
    "id": "262441413",
    "lat": "2.5293044",
    "long": "102.8825942",
    "name": "FELDA Medoi",
    "isIn": "Johor"
  },
  {
    "id": "298276773",
    "lat": "2.0713884",
    "long": "102.5634057",
    "name": "Sabak Awor",
    "isIn": "Johor"
  },
  {
    "id": "302095626",
    "lat": "2.3868877",
    "long": "103.0199613",
    "name": "Labis",
    "isIn": "Johor"
  },
  {
    "id": "302670913",
    "lat": "1.9759124",
    "long": "102.8830335",
    "name": "Parit Sulong",
    "isIn": "Johor"
  },
  {
    "id": "339825735",
    "lat": "2.180623",
    "long": "102.5117235",
    "name": "Teluk Rimba",
    "isIn": "Johor"
  },
  {
    "id": "340028350",
    "lat": "2.4405617",
    "long": "102.6857995",
    "name": "Jementah",
    "isIn": "Johor"
  },
  {
    "id": "920052702",
    "lat": "1.3503252",
    "long": "104.222131",
    "name": "Sungai Rengit",
    "isIn": "Johor"
  },
  {
    "id": "1679383631",
    "lat": "2.5490351",
    "long": "102.878254",
    "name": "Kampung Tungku Tiga",
    "isIn": "Johor"
  },
  {
    "id": "1711037868",
    "lat": "1.4155373",
    "long": "103.4244825",
    "name": "Kampung Teluk Kerang",
    "isIn": "Johor"
  },
  {
    "id": "1836357216",
    "lat": "1.6687544",
    "long": "103.8546584",
    "name": "Taman Sri Saujana",
    "isIn": "Johor"
  },
  {
    "id": "1843744039",
    "lat": "2.0121288",
    "long": "103.8590831",
    "name": "Felcra Sg Ara",
    "isIn": "Johor"
  },
  {
    "id": "1843744045",
    "lat": "1.7322871",
    "long": "103.9126473",
    "name": "Kg Makam",
    "isIn": "Johor"
  },
  {
    "id": "1843761933",
    "lat": "2.6380854",
    "long": "103.6657478",
    "name": "Kg Air Tawar",
    "isIn": "Johor"
  },
  {
    "id": "1843761934",
    "lat": "2.4856496",
    "long": "103.8023945",
    "name": "Kg Tenglu Laut",
    "isIn": "Johor"
  },
  {
    "id": "1843761935",
    "lat": "2.4760276",
    "long": "103.8087785",
    "name": "Kg Tenglu",
    "isIn": "Johor"
  },
  {
    "id": "1843761938",
    "lat": "2.4372519",
    "long": "103.8302899",
    "name": "Taman Samudera",
    "isIn": "Johor"
  },
  {
    "id": "1855359268",
    "lat": "2.3436482",
    "long": "103.8434306",
    "name": "Kg Wak Salam",
    "isIn": "Johor"
  },
  {
    "id": "1855366693",
    "lat": "2.6502036",
    "long": "103.6243368",
    "name": "Endau",
    "isIn": "Johor"
  },
  {
    "id": "1911019511",
    "lat": "1.4226388",
    "long": "103.6518138",
    "name": "Iskandar Puteri",
    "isIn": "Johor"
  },
  {
    "id": "2204165523",
    "lat": "1.4122107",
    "long": "103.6272524",
    "name": "Medini",
    "isIn": "Johor"
  },
  {
    "id": "2215697553",
    "lat": "1.3608247",
    "long": "103.5909619",
    "name": "Kampung Pok Besar",
    "isIn": "Johor"
  },
  {
    "id": "2215697554",
    "lat": "1.3523379",
    "long": "103.5730026",
    "name": "Kampung Tanjong Adang",
    "isIn": "Johor"
  },
  {
    "id": "2215697558",
    "lat": "1.3532658",
    "long": "103.6030199",
    "name": "Kampung Tanjung Kupang",
    "isIn": "Johor"
  },
  {
    "id": "2215697561",
    "lat": "1.3595095",
    "long": "103.5609958",
    "name": "Kampung Tanjong Pelepas",
    "isIn": "Johor"
  },
  {
    "id": "2215697572",
    "lat": "1.5023095",
    "long": "103.6169775",
    "name": "Lima Kedai",
    "isIn": "Johor"
  },
  {
    "id": "2215697584",
    "lat": "1.4800069",
    "long": "103.6128524",
    "name": "Pulai",
    "isIn": "Johor"
  },
  {
    "id": "2215697596",
    "lat": "1.5320999",
    "long": "103.5461473",
    "name": "Ulu Choh",
    "isIn": "Johor"
  },
  {
    "id": "2215742680",
    "lat": "1.4562786",
    "long": "104.0919883",
    "name": "Tanjung Surat",
    "isIn": "Johor"
  },
  {
    "id": "2216136984",
    "lat": "1.553823",
    "long": "104.2313823",
    "name": "Bandar Penawar",
    "isIn": "Johor"
  },
  {
    "id": "2389078200",
    "lat": "2.5793952",
    "long": "102.7078946",
    "name": "Batu Anam",
    "isIn": "Johor"
  },
  {
    "id": "2407022155",
    "lat": "1.6329423",
    "long": "103.7560046",
    "name": "FELDA Ulu Tebrau",
    "isIn": "Johor"
  },
  {
    "id": "2420499587",
    "lat": "2.3805924",
    "long": "102.9469089",
    "name": "FELDA Chemplak",
    "isIn": "Johor"
  },
  {
    "id": "2420499588",
    "lat": "2.3827577",
    "long": "102.9178552",
    "name": "Felcra Bukit Kepong",
    "isIn": "Johor"
  },
  {
    "id": "2477518325",
    "lat": "1.8249696",
    "long": "103.7680376",
    "name": "Felda Petri Jaya",
    "isIn": "Johor"
  },
  {
    "id": "2507870982",
    "lat": "2.2891697",
    "long": "104.1353799",
    "name": "Teluk Pinang",
    "isIn": "Johor"
  },
  {
    "id": "2507870983",
    "lat": "2.3130543",
    "long": "104.0990521",
    "name": "Kampong Buloh Kasap",
    "isIn": "Johor"
  },
  {
    "id": "2507870984",
    "lat": "2.2952159",
    "long": "104.1001679",
    "name": "Kampong Pasir Panjang",
    "isIn": "Johor"
  },
  {
    "id": "2507870985",
    "lat": "2.284174",
    "long": "104.1202523",
    "name": "Kampong Tanjung Balang",
    "isIn": "Johor"
  },
  {
    "id": "2508980912",
    "lat": "2.6457125",
    "long": "103.749685",
    "name": "Kampung Penyabong Pantai",
    "isIn": "Johor"
  },
  {
    "id": "2508980917",
    "lat": "2.5883035",
    "long": "103.7937967",
    "name": "Kampung Sisek",
    "isIn": "Johor"
  },
  {
    "id": "2508980925",
    "lat": "2.0920787",
    "long": "103.9913252",
    "name": "FELDA Tenggaroh 3",
    "isIn": "Johor"
  },
  {
    "id": "2508980926",
    "lat": "2.0567182",
    "long": "103.986111",
    "name": "FELDA Tenggaroh 6",
    "isIn": "Johor"
  },
  {
    "id": "2508980928",
    "lat": "1.9274067",
    "long": "104.0765336",
    "name": "Kampung Padang",
    "isIn": "Johor"
  },
  {
    "id": "2508980929",
    "lat": "1.9344408",
    "long": "104.0737871",
    "name": "Kampung Ayer Gemuroh",
    "isIn": "Johor"
  },
  {
    "id": "2508980930",
    "lat": "1.931803",
    "long": "104.0659979",
    "name": "Kampung Telok",
    "isIn": "Johor"
  },
  {
    "id": "2508980931",
    "lat": "1.9354487",
    "long": "104.0617922",
    "name": "Kampung Hutan Lesong",
    "isIn": "Johor"
  },
  {
    "id": "2508980933",
    "lat": "1.9272098",
    "long": "104.121536",
    "name": "Tanjung Sedili Besar",
    "isIn": "Johor"
  },
  {
    "id": "2527823501",
    "lat": "1.9165843",
    "long": "104.0999944",
    "name": "Kampong Sri Gading",
    "isIn": "Johor"
  },
  {
    "id": "2533196089",
    "lat": "1.7290555",
    "long": "103.4446273",
    "name": "Bukit Batu",
    "isIn": "Johor"
  },
  {
    "id": "2534621969",
    "lat": "1.7800918",
    "long": "102.9527669",
    "name": "Kampong Sungai Suloh",
    "isIn": "Johor"
  },
  {
    "id": "2534621970",
    "lat": "1.9540356",
    "long": "103.025862",
    "name": "Parit Yaani",
    "isIn": "Johor"
  },
  {
    "id": "2534621973",
    "lat": "2.0637055",
    "long": "103.1235495",
    "name": "Kangkar Bahru",
    "isIn": "Johor"
  },
  {
    "id": "2534621974",
    "lat": "2.216756",
    "long": "103.4832363",
    "name": "Kampong Si-Kijang",
    "isIn": "Johor"
  },
  {
    "id": "2534621975",
    "lat": "2.5163944",
    "long": "103.6331653",
    "name": "Kampong Jurak",
    "isIn": "Johor"
  },
  {
    "id": "2534621976",
    "lat": "2.5833843",
    "long": "103.633189",
    "name": "Kampong Labong",
    "isIn": "Johor"
  },
  {
    "id": "2534621977",
    "lat": "2.6229334",
    "long": "103.6467916",
    "name": "Kampung Hubong",
    "isIn": "Johor"
  },
  {
    "id": "2534621979",
    "lat": "2.6335595",
    "long": "103.7005269",
    "name": "Kampong Triang Kechil",
    "isIn": "Johor"
  },
  {
    "id": "2534621980",
    "lat": "2.5772036",
    "long": "103.8039892",
    "name": "Kampong Tanjung Resang",
    "isIn": "Johor"
  },
  {
    "id": "2534621981",
    "lat": "2.5172796",
    "long": "103.832378",
    "name": "Kampong Air Papan",
    "isIn": "Johor"
  },
  {
    "id": "2534621982",
    "lat": "2.4967418",
    "long": "103.8010126",
    "name": "Kampong Tenglu Besar",
    "isIn": "Johor"
  },
  {
    "id": "2534621983",
    "lat": "2.3999637",
    "long": "103.8664281",
    "name": "Kampong Seri Pantai",
    "isIn": "Johor"
  },
  {
    "id": "2534755300",
    "lat": "1.6334845",
    "long": "103.953077",
    "name": "Kampong Air Puteh",
    "isIn": "Johor"
  },
  {
    "id": "2534755301",
    "lat": "1.66658",
    "long": "103.9170301",
    "name": "Kampong Bukit Berangan",
    "isIn": "Johor"
  },
  {
    "id": "2534755302",
    "lat": "1.4354286",
    "long": "104.2816771",
    "name": "Kampong Punggai",
    "isIn": "Johor"
  },
  {
    "id": "2569498288",
    "lat": "2.5400006",
    "long": "103.4151096",
    "name": "Kampong Peta",
    "isIn": "Johor"
  },
  {
    "id": "2888656516",
    "lat": "2.4298532",
    "long": "103.835494",
    "name": "Mersing",
    "isIn": "Johor"
  },
  {
    "id": "2920429386",
    "lat": "1.6111095",
    "long": "104.1504952",
    "name": "Bandar Mas",
    "isIn": "Johor"
  },
  {
    "id": "2920429388",
    "lat": "1.6796976",
    "long": "104.0213137",
    "name": "FELDA Air Tawar 2",
    "isIn": "Johor"
  },
  {
    "id": "2920429390",
    "lat": "1.6313956",
    "long": "104.0870921",
    "name": "Air Tawar 4",
    "isIn": "Johor"
  },
  {
    "id": "2920429391",
    "lat": "1.601854",
    "long": "104.0879222",
    "name": "Air Tawar 5",
    "isIn": "Johor"
  },
  {
    "id": "2920429396",
    "lat": "1.7124238",
    "long": "103.9569164",
    "name": "FELDA Pasak",
    "isIn": "Johor"
  },
  {
    "id": "2920429399",
    "lat": "1.570656",
    "long": "104.0995595",
    "name": "Semenchu",
    "isIn": "Johor"
  },
  {
    "id": "3371470262",
    "lat": "2.2153025",
    "long": "103.5404167",
    "name": "Kahang",
    "isIn": "Johor"
  },
  {
    "id": "3720838434",
    "lat": "2.4738073",
    "long": "102.9551478",
    "name": "Kampung Sawah Padi",
    "isIn": "Johor"
  },
  {
    "id": "3722712107",
    "lat": "2.5059865",
    "long": "103.0159866",
    "name": "FELDA Redong",
    "isIn": "Johor"
  },
  {
    "id": "4103589347",
    "lat": "2.1416118",
    "long": "103.2385882",
    "name": "Chamek",
    "isIn": "Johor"
  },
  {
    "id": "4233410287",
    "lat": "1.3579564",
    "long": "103.5798965",
    "name": "Kampung Pok Kechil",
    "isIn": "Johor"
  },
  {
    "id": "4428608320",
    "lat": "2.1233833",
    "long": "102.5564076",
    "name": "Pekan Rawang",
    "isIn": "Johor"
  },
  {
    "id": "4459587307",
    "lat": "1.3661423",
    "long": "103.619882",
    "name": "Kampung Ladang",
    "isIn": "Johor"
  },
  {
    "id": "4474814901",
    "lat": "1.8541606",
    "long": "103.0304386",
    "name": "Sri Gading",
    "isIn": "Johor"
  },
  {
    "id": "4482180056",
    "lat": "1.3818375",
    "long": "103.5667886",
    "name": "Kampung Tiram Duku",
    "isIn": "Johor"
  },
  {
    "id": "4482190566",
    "lat": "1.3724887",
    "long": "103.5578912",
    "name": "Kampung Pekajang Bengkok",
    "isIn": "Johor"
  },
  {
    "id": "4486473991",
    "lat": "1.7126551",
    "long": "103.5257302",
    "name": "Sedenak",
    "isIn": "Johor"
  },
  {
    "id": "4486488175",
    "lat": "1.6802896",
    "long": "103.5253292",
    "name": "Kelapa Sawit",
    "isIn": "Johor"
  },
  {
    "id": "4487575089",
    "lat": "1.381542",
    "long": "103.441458",
    "name": "Kampong Penerok",
    "isIn": "Johor"
  },
  {
    "id": "4487576361",
    "lat": "1.3493557",
    "long": "103.5157342",
    "name": "Kampong Sungai Boh",
    "isIn": "Johor"
  },
  {
    "id": "4487623622",
    "lat": "1.3570424",
    "long": "103.479698",
    "name": "Kampong Permas Kelapa",
    "isIn": "Johor"
  },
  {
    "id": "4487626489",
    "lat": "1.4004056",
    "long": "103.4850673",
    "name": "Kampong Buloh Kasap",
    "isIn": "Johor"
  },
  {
    "id": "4553279147",
    "lat": "1.3760695",
    "long": "103.5915219",
    "name": "Desa Paya Mengkuang",
    "isIn": "Johor"
  },
  {
    "id": "4569744019",
    "lat": "1.4308195",
    "long": "103.4175257",
    "name": "Kampung Rambah",
    "isIn": "Johor"
  },
  {
    "id": "4583118630",
    "lat": "1.3761326",
    "long": "103.6350767",
    "name": "Kampung Pendas Baru",
    "isIn": "Johor"
  },
  {
    "id": "4664913689",
    "lat": "1.367714",
    "long": "104.103142",
    "name": "Tanjung Pengelih",
    "isIn": "Johor"
  },
  {
    "id": "4664913697",
    "lat": "1.346366",
    "long": "104.211993",
    "name": "Sungai Buntu",
    "isIn": "Johor"
  },
  {
    "id": "4664917195",
    "lat": "1.372728",
    "long": "104.246624",
    "name": "Teluk Ramunia",
    "isIn": "Johor"
  },
  {
    "id": "4664918491",
    "lat": "1.380628",
    "long": "104.280204",
    "name": "Tanjung Sepang",
    "isIn": "Johor"
  },
  {
    "id": "4664918695",
    "lat": "1.3536097",
    "long": "104.1843148",
    "name": "Sungai Kapal",
    "isIn": "Johor"
  },
  {
    "id": "4840498090",
    "lat": "1.3887022",
    "long": "104.150062",
    "name": "Kampung Lepau",
    "isIn": "Johor"
  },
  {
    "id": "4931715547",
    "lat": "1.9284664",
    "long": "104.1084771",
    "name": "Tanjung Sedili",
    "isIn": "Johor"
  },
  {
    "id": "4966298064",
    "lat": "2.0938102",
    "long": "103.2795463",
    "name": "Niyor",
    "isIn": "Johor"
  },
  {
    "id": "5021567122",
    "lat": "2.0838941",
    "long": "103.8893464",
    "name": "FELDA Tenggaroh 1",
    "isIn": "Johor"
  },
  {
    "id": "5021567123",
    "lat": "2.082729",
    "long": "103.944358",
    "name": "FELDA Tenggaroh 2",
    "isIn": "Johor"
  },
  {
    "id": "5038368473",
    "lat": "1.9749215",
    "long": "102.6619189",
    "name": "Bukit Mor",
    "isIn": "Johor"
  },
  {
    "id": "5113406318",
    "lat": "2.2824816",
    "long": "103.112483",
    "name": "Ladang Eldred",
    "isIn": "Johor"
  },
  {
    "id": "5113406343",
    "lat": "2.2921835",
    "long": "103.1025481",
    "name": "Kampung Panca Jaya",
    "isIn": "Johor"
  },
  {
    "id": "5113406534",
    "lat": "1.8562681",
    "long": "103.0237663",
    "name": "Kampung Sengkuang",
    "isIn": "Johor"
  },
  {
    "id": "5216446654",
    "lat": "1.9465149",
    "long": "103.2343204",
    "name": "FELDA Ayer Hitam Kluang",
    "isIn": "Johor"
  },
  {
    "id": "5317908677",
    "lat": "1.466983",
    "long": "103.9022758",
    "name": "Pasir Gudang",
    "isIn": "Johor"
  },
  {
    "id": "5363300988",
    "lat": "1.8647959",
    "long": "103.1124143",
    "name": "Parit Raja",
    "isIn": "Johor"
  },
  {
    "id": "5435499254",
    "lat": "1.7845675",
    "long": "103.6822448",
    "name": "Felda Sungai Sayong",
    "isIn": "Johor"
  },
  {
    "id": "5435500573",
    "lat": "1.7703965",
    "long": "103.7054708",
    "name": "FELDA Bukit Besar",
    "isIn": "Johor"
  },
  {
    "id": "5435500574",
    "lat": "1.7540234",
    "long": "103.7270404",
    "name": "Felda Bukit Ramun",
    "isIn": "Johor"
  },
  {
    "id": "5435500575",
    "lat": "1.7575818",
    "long": "103.673502",
    "name": "Felda Pasir Raja",
    "isIn": "Johor"
  },
  {
    "id": "5435537063",
    "lat": "1.8637505",
    "long": "103.6219072",
    "name": "Bandar Tenggara",
    "isIn": "Johor"
  },
  {
    "id": "5455313650",
    "lat": "1.6492362",
    "long": "103.2584382",
    "name": "Benut",
    "isIn": "Johor"
  },
  {
    "id": "5502006683",
    "lat": "2.0941254",
    "long": "103.0459798",
    "name": "Lam Lee",
    "isIn": "Johor"
  },
  {
    "id": "5739263056",
    "lat": "1.7888",
    "long": "102.9053",
    "name": "Kampung Teluk Buloh",
    "isIn": "Johor"
  },
  {
    "id": "5739263057",
    "lat": "1.8013837",
    "long": "102.9055328",
    "name": "Kampung Minyak Beku",
    "isIn": "Johor"
  },
  {
    "id": "5812663389",
    "lat": "2.2636222",
    "long": "103.6010598",
    "name": "Kampung Sri Lukut",
    "isIn": "Johor"
  },
  {
    "id": "5814349320",
    "lat": "2.3787798",
    "long": "103.7701968",
    "name": "FELDA Nitar Timur",
    "isIn": "Johor"
  },
  {
    "id": "5819515885",
    "lat": "1.9722916",
    "long": "103.2508684",
    "name": "Kampung Rahmat",
    "isIn": "Johor"
  },
  {
    "id": "5819708467",
    "lat": "2.4229183",
    "long": "103.824395",
    "name": "Kampung Pengkalan Batu",
    "isIn": "Johor"
  },
  {
    "id": "6014598554",
    "lat": "2.4917658",
    "long": "102.7946243",
    "name": "Gemereh",
    "isIn": "Johor"
  },
  {
    "id": "6026724518",
    "lat": "2.5497848",
    "long": "102.7651428",
    "name": "Kampung Baru Buloh Kasap",
    "isIn": "Johor"
  },
  {
    "id": "6026724533",
    "lat": "2.6375722",
    "long": "102.7425599",
    "name": "Kampung Tambang Batu Tujoh",
    "isIn": "Johor"
  },
  {
    "id": "6042198000",
    "lat": "2.7079644",
    "long": "102.6823672",
    "name": "FELDA Palong Timur",
    "isIn": "Johor"
  },
  {
    "id": "6042198069",
    "lat": "2.2976154",
    "long": "102.9693689",
    "name": "FELDA Maokil",
    "isIn": "Johor"
  },
  {
    "id": "6069913758",
    "lat": "2.1398665",
    "long": "103.8797816",
    "name": "Sungai Ambat",
    "isIn": "Johor"
  },
  {
    "id": "6070980420",
    "lat": "2.3359446",
    "long": "102.7230673",
    "name": "Kampung Teratai",
    "isIn": "Johor"
  },
  {
    "id": "6072925104",
    "lat": "2.3396932",
    "long": "102.7882972",
    "name": "FELDA Sri Jaya Bukit Serampang",
    "isIn": "Johor"
  },
  {
    "id": "6072925106",
    "lat": "2.39148",
    "long": "102.7600482",
    "name": "FELDA Sri Ledang",
    "isIn": "Johor"
  },
  {
    "id": "6109349129",
    "lat": "2.0027845",
    "long": "102.6054284",
    "name": "Parit Bakar",
    "isIn": "Johor"
  },
  {
    "id": "6130162206",
    "lat": "2.0709152",
    "long": "103.143533",
    "name": "Kampung Sin Lik",
    "isIn": "Johor"
  },
  {
    "id": "6130162871",
    "lat": "1.8899786",
    "long": "102.9893644",
    "name": "Parit Buloh",
    "isIn": "Johor"
  },
  {
    "id": "6130162884",
    "lat": "1.847896",
    "long": "102.8582555",
    "name": "Bagan",
    "isIn": "Johor"
  },
  {
    "id": "6138798157",
    "lat": "1.9940304",
    "long": "103.2526396",
    "name": "Seri Lalang",
    "isIn": "Johor"
  },
  {
    "id": "6138963590",
    "lat": "2.2308512",
    "long": "103.5540623",
    "name": "Batu 24 Kahang",
    "isIn": "Johor"
  },
  {
    "id": "6161190016",
    "lat": "1.5311979",
    "long": "103.7557682",
    "name": "Kangkar Tebrau",
    "isIn": "Johor"
  },
  {
    "id": "6977167093",
    "lat": "2.0885242",
    "long": "103.4923261",
    "name": "FELDA Ulu Dengar",
    "isIn": "Johor"
  },
  {
    "id": "7384018656",
    "lat": "1.4831495",
    "long": "103.5771114",
    "name": "Kampung Ulu Pulai",
    "isIn": "Johor"
  },
  {
    "id": "7401176354",
    "lat": "1.5240392",
    "long": "103.4758043",
    "name": "Pengkalan Raja",
    "isIn": "Johor"
  },
  {
    "id": "7401176359",
    "lat": "1.528726",
    "long": "103.4486711",
    "name": "Kampung Parit Baru",
    "isIn": "Johor"
  },
  {
    "id": "7443688173",
    "lat": "2.5011162",
    "long": "102.80846",
    "name": "Kampung Lubuk Batu",
    "isIn": "Johor"
  },
  {
    "id": "7574891188",
    "lat": "1.4203906",
    "long": "104.1030128",
    "name": "Kampung Pasir Gogok",
    "isIn": "Johor"
  },
  {
    "id": "7691837873",
    "lat": "1.7341492",
    "long": "103.6451028",
    "name": "FELDA Taib Andak",
    "isIn": "Johor"
  },
  {
    "id": "7775500952",
    "lat": "1.9256849",
    "long": "102.9543899",
    "name": "Kampung Seri Binjai",
    "isIn": "Johor"
  },
  {
    "id": "7775621723",
    "lat": "1.9585628",
    "long": "102.9415526",
    "name": "Kg. Mohd. Noor",
    "isIn": "Johor"
  },
  {
    "id": "7775655830",
    "lat": "1.9019989",
    "long": "102.9676106",
    "name": "Kampung Bindu",
    "isIn": "Johor"
  },
  {
    "id": "7917194397",
    "lat": "1.3709602",
    "long": "104.2369638",
    "name": "Taman Ramunia Indah",
    "isIn": "Johor"
  },
  {
    "id": "7925192708",
    "lat": "1.3722268",
    "long": "104.2342484",
    "name": "Kampung Changi",
    "isIn": "Johor"
  },
  {
    "id": "7925192711",
    "lat": "1.3727689",
    "long": "104.2416291",
    "name": "Kampung Simon",
    "isIn": "Johor"
  },
  {
    "id": "7925194691",
    "lat": "1.3725616",
    "long": "104.269316",
    "name": "Kampung Baru",
    "isIn": "Johor"
  },
  {
    "id": "7973083616",
    "lat": "2.0334302",
    "long": "102.9380203",
    "name": "Kampung Parit Baru",
    "isIn": "Johor"
  },
  {
    "id": "7973083629",
    "lat": "2.0462941",
    "long": "102.9408724",
    "name": "Kampung Sri Murni",
    "isIn": "Johor"
  },
  {
    "id": "7981044935",
    "lat": "1.9716281",
    "long": "102.8854167",
    "name": "Kampung Sungai Lontok",
    "isIn": "Johor"
  },
  {
    "id": "7984212057",
    "lat": "1.9966997",
    "long": "102.8733798",
    "name": "Kampung Parit Pulai",
    "isIn": "Johor"
  },
  {
    "id": "7984212058",
    "lat": "1.9934376",
    "long": "102.8722772",
    "name": "Kampung Parit Gantong",
    "isIn": "Johor"
  },
  {
    "id": "7984212059",
    "lat": "1.9898566",
    "long": "102.873152",
    "name": "Taman Mutiara",
    "isIn": "Johor"
  },
  {
    "id": "7984260485",
    "lat": "1.9786375",
    "long": "102.8764106",
    "name": "Kampung Parit Raja Ahmad",
    "isIn": "Johor"
  }
]